id	type	DescriptionTitle	PriceLabel	ListingDate	ReListingDate	Address	Suburb	State	PostCode	Property.lat	Property.lon	PropertyType	Agency.Id	Agency.Type	Agency.Name	Agent.Name	Beds	Baths	Cars	EER	PlotSize	Features
176596238	RENTAL_RESIDENTIAL	Palmerston Family home	$1,100 per week	2019-04-07 23:37:58		1 Chaton Place	Palmerston	ACT	2913	-35.1947293	149.112136	HOUSE	408078	PrivateLister	Private Lister		4	2	8		831	['DINING_ROOM', 'FAMILY_ROOM', 'SELF_CONT_FLAT', 'STUDY', 'SUNROOM']
176664726	RENTAL_RESIDENTIAL	To live in a new apartment in the heart of City	$600 per week	2019-04-22 23:49:56		260 City Walk	City	ACT	2601	-35.2819498	149.1332144	APARTMENT	580150	PrivateLister	Private Lister		1	1	2	6	1665	['CENTRAL_HEAT', 'DINING_ROOM', 'DISABILITY_FRIENDLY', 'NEW_CONSTRUCTION', 'SWIMMING_POOL']
176650877	RENTAL_RESIDENTIAL	Location , Location , Location and Lifestyle	$500 per week	2019-04-24 12:02:01		(no street name provided)	Gungahlin	ACT	2912	-35.1847014	149.135589	TOWNHOUSE	173425	PrivateLister	Private Lister		2	2	2	6	17188	['DINING_ROOM', 'FAMILY_ROOM']
176675910	RENTAL_RESIDENTIAL	EXECUTIVE FAMILY HOME IN PRIME LOCATION	By Negotiation	2019-04-27 09:56:29		(no street name provided)	Narrabundah	ACT	2604	-35.3351894	149.1464046	HOUSE	65555	PrivateLister	Private Lister		5	4	0		788	['CENTRAL_HEAT', 'DINING_ROOM', 'FAMILY_ROOM', 'SELF_CONT_FLAT', 'PETS_ALLOWED']
176687409	RENTAL_RESIDENTIAL	Exclusive, spacious, private and secure !!	$890 per week	2019-04-30 02:32:13		1/37 Dominion Circuit	Forrest	ACT	2603	-35.3167962	149.1254213	TOWNHOUSE	354050	Agent	Francis Pires Real Estate	Francis Pires	3	2	2			['CENTRAL_HEAT']
